Input/ECLIPSE_SAT2_20140704000000_20140711000000_20140604123800_V1.csv

"Start Time (UTCG)","Stop Time (UTCG)","Duration (sec)"
4 Jul 2014 00:46:10.769,4 Jul 2014 00:46:19.329,8.560
4 Jul 2014 00:46:19.329,4 Jul 2014 01:21:32.041,2112.712
4 Jul 2014 01:21:32.041,4 Jul 2014 01:21:40.586,8.545
4 Jul 2014 02:23:20.332,4 Jul 2014 02:23:28.892,8.560
4 Jul 2014 02:23:28.892,4 Jul 2014 02:58:41.605,2112.712
4 Jul 2014 02:58:41.605,4 Jul 2014 02:58:50.150,8.545
4 Jul 2014 04:00:29.896,4 Jul 2014 04:00:38.457,8.560
4 Jul 2014 04:00:38.457,4 Jul 2014 04:35:51.171,2112.714
4 Jul 2014 04:35:51.171,4 Jul 2014 04:35:59.716,8.545
4 Jul 2014 05:37:39.462,4 Jul 2014 05:37:48.022,8.560
4 Jul 2014 05:37:48.022,4 Jul 2014 06:13:00.736,2112.714
4 Jul 2014 06:13:00.736,4 Jul 2014 06:13:09.281,8.545
4 Jul 2014 07:14:49.026,4 Jul 2014 07:14:57.587,8.560
4 Jul 2014 07:14:57.587,4 Jul 2014 07:50:10.301,2112.715
4 Jul 2014 07:50:10.301,4 Jul 2014 07:50:18.846,8.545
4 Jul 2014 08:51:58.591,4 Jul 2014 08:52:07.151,8.560
4 Jul 2014 08:52:07.151,4 Jul 2014 09:27:19.865,2112.714
4 Jul 2014 09:27:19.865,4 Jul 2014 09:27:28.410,8.545
4 Jul 2014 10:29:08.154,4 Jul 2014 10:29:16.714,8.560
4 Jul 2014 10:29:16.714,4 Jul 2014 11:04:29.430,2112.716
4 Jul 2014 11:04:29.430,4 Jul 2014 11:04:37.975,8.545
4 Jul 2014 12:06:17.718,4 Jul 2014 12:06:26.278,8.560
4 Jul 2014 12:06:26.278,4 Jul 2014 12:41:38.996,2112.717
4 Jul 2014 12:41:38.996,4 Jul 2014 12:41:47.540,8.545
4 Jul 2014 13:43:27.282,4 Jul 2014 13:43:35.843,8.560
4 Jul 2014 13:43:35.843,4 Jul 2014 14:18:48.561,2112.718
4 Jul 2014 14:18:48.561,4 Jul 2014 14:18:57.105,8.545
4 Jul 2014 15:20:36.847,4 Jul 2014 15:20:45.407,8.560
4 Jul 2014 15:20:45.407,4 Jul 2014 15:55:58.126,2112.719
4 Jul 2014 15:55:58.126,4 Jul 2014 15:56:06.670,8.545
4 Jul 2014 16:57:46.411,4 Jul 2014 16:57:54.971,8.560
4 Jul 2014 16:57:54.971,4 Jul 2014 17:33:07.691,2112.720
4 Jul 2014 17:33:07.691,4 Jul 2014 17:33:16.235,8.544
4 Jul 2014 18:34:55.976,4 Jul 2014 18:35:04.537,8.560
4 Jul 2014 18:35:04.537,4 Jul 2014 19:10:17.257,2112.720
4 Jul 2014 19:10:17.257,4 Jul 2014 19:10:25.802,8.544
4 Jul 2014 20:12:05.541,4 Jul 2014 20:12:14.101,8.560
4 Jul 2014 20:12:14.101,4 Jul 2014 20:47:26.822,2112.721
4 Jul 2014 20:47:26.822,4 Jul 2014 20:47:35.367,8.544
4 Jul 2014 21:49:15.105,4 Jul 2014 21:49:23.665,8.560
4 Jul 2014 21:49:23.665,4 Jul 2014 22:24:36.387,2112.722
4 Jul 2014 22:24:36.387,4 Jul 2014 22:24:44.932,8.544
4 Jul 2014 23:26:24.669,4 Jul 2014 23:26:33.229,8.560
4 Jul 2014 23:26:33.229,5 Jul 2014 00:01:45.952,2112.723
5 Jul 2014 00:01:45.952,5 Jul 2014 00:01:54.497,8.544
5 Jul 2014 01:03:34.233,5 Jul 2014 01:03:42.794,8.560
5 Jul 2014 01:03:42.794,5 Jul 2014 01:38:55.518,2112.724
5 Jul 2014 01:38:55.518,5 Jul 2014 01:39:04.062,8.544
5 Jul 2014 02:40:43.798,5 Jul 2014 02:40:52.358,8.560
5 Jul 2014 02:40:52.358,5 Jul 2014 03:16:05.083,2112.725
5 Jul 2014 03:16:05.083,5 Jul 2014 03:16:13.627,8.544
5 Jul 2014 04:17:53.362,5 Jul 2014 04:18:01.922,8.560
5 Jul 2014 04:18:01.922,5 Jul 2014 04:53:14.648,2112.726
5 Jul 2014 04:53:14.648,5 Jul 2014 04:53:23.192,8.544
5 Jul 2014 05:55:02.926,5 Jul 2014 05:55:11.486,8.560
5 Jul 2014 05:55:11.486,5 Jul 2014 06:30:24.213,2112.726
5 Jul 2014 06:30:24.213,5 Jul 2014 06:30:32.757,8.544
5 Jul 2014 07:32:12.490,5 Jul 2014 07:32:21.050,8.560
5 Jul 2014 07:32:21.050,5 Jul 2014 08:07:33.778,2112.727
5 Jul 2014 08:07:33.778,5 Jul 2014 08:07:42.322,8.544
5 Jul 2014 09:09:22.054,5 Jul 2014 09:09:30.614,8.560
5 Jul 2014 09:09:30.614,5 Jul 2014 09:44:43.343,2112.728
5 Jul 2014 09:44:43.343,5 Jul 2014 09:44:51.886,8.544
5 Jul 2014 10:46:31.618,5 Jul 2014 10:46:40.179,8.560
5 Jul 2014 10:46:40.179,5 Jul 2014 11:21:52.908,2112.729
5 Jul 2014 11:21:52.908,5 Jul 2014 11:22:01.451,8.544
5 Jul 2014 12:23:41.182,5 Jul 2014 12:23:49.743,8.560
5 Jul 2014 12:23:49.743,5 Jul 2014 12:59:02.473,2112.730
5 Jul 2014 12:59:02.473,5 Jul 2014 12:59:11.016,8.544
5 Jul 2014 14:00:50.746,5 Jul 2014 14:00:59.307,8.560
5 Jul 2014 14:00:59.307,5 Jul 2014 14:36:12.038,2112.731
5 Jul 2014 14:36:12.038,5 Jul 2014 14:36:20.581,8.544
5 Jul 2014 15:38:00.311,5 Jul 2014 15:38:08.871,8.560
5 Jul 2014 15:38:08.871,5 Jul 2014 16:13:21.603,2112.732
5 Jul 2014 16:13:21.603,5 Jul 2014 16:13:30.146,8.544
5 Jul 2014 17:15:09.875,5 Jul 2014 17:15:18.435,8.560
5 Jul 2014 17:15:18.435,5 Jul 2014 17:50:31.168,2112.733
5 Jul 2014 17:50:31.168,5 Jul 2014 17:50:39.711,8.543
5 Jul 2014 18:52:19.439,5 Jul 2014 18:52:27.999,8.560
5 Jul 2014 18:52:27.999,5 Jul 2014 19:27:40.732,2112.734
5 Jul 2014 19:27:40.732,5 Jul 2014 19:27:49.276,8.543
5 Jul 2014 20:29:29.003,5 Jul 2014 20:29:37.563,8.560
5 Jul 2014 20:29:37.563,5 Jul 2014 21:04:50.297,2112.734
5 Jul 2014 21:04:50.297,5 Jul 2014 21:04:58.841,8.543
5 Jul 2014 22:06:38.567,5 Jul 2014 22:06:47.127,8.560
5 Jul 2014 22:06:47.127,5 Jul 2014 22:41:59.862,2112.735
5 Jul 2014 22:41:59.862,5 Jul 2014 22:42:08.406,8.543
5 Jul 2014 23:43:48.131,5 Jul 2014 23:43:56.691,8.560
5 Jul 2014 23:43:56.691,6 Jul 2014 00:19:09.427,2112.736
6 Jul 2014 00:19:09.427,6 Jul 2014 00:19:17.970,8.543
6 Jul 2014 01:20:57.695,6 Jul 2014 01:21:06.255,8.560
6 Jul 2014 01:21:06.255,6 Jul 2014 01:56:18.992,2112.737
6 Jul 2014 01:56:18.992,6 Jul 2014 01:56:27.535,8.543
6 Jul 2014 02:58:07.259,6 Jul 2014 02:58:15.819,8.560
6 Jul 2014 02:58:15.819,6 Jul 2014 03:33:28.557,2112.738
6 Jul 2014 03:33:28.557,6 Jul 2014 03:33:37.100,8.543
6 Jul 2014 04:35:16.822,6 Jul 2014 04:35:25.383,8.560
6 Jul 2014 04:35:25.383,6 Jul 2014 05:10:38.122,2112.739
6 Jul 2014 05:10:38.122,6 Jul 2014 05:10:46.665,8.543
6 Jul 2014 06:12:26.386,6 Jul 2014 06:12:34.947,8.560
6 Jul 2014 06:12:34.947,6 Jul 2014 06:47:47.687,2112.740
6 Jul 2014 06:47:47.687,6 Jul 2014 06:47:56.230,8.543
6 Jul 2014 07:49:35.950,6 Jul 2014 07:49:44.511,8.560
6 Jul 2014 07:49:44.511,6 Jul 2014 08:24:57.252,2112.741
6 Jul 2014 08:24:57.252,6 Jul 2014 08:25:05.794,8.543
6 Jul 2014 09:26:45.514,6 Jul 2014 09:26:54.074,8.560
6 Jul 2014 09:26:54.074,6 Jul 2014 10:02:06.816,2112.742
6 Jul 2014 10:02:06.816,6 Jul 2014 10:02:15.359,8.543
6 Jul 2014 11:03:55.078,6 Jul 2014 11:04:03.638,8.560
6 Jul 2014 11:04:03.638,6 Jul 2014 11:39:16.381,2112.743
6 Jul 2014 11:39:16.381,6 Jul 2014 11:39:24.924,8.543
6 Jul 2014 12:41:04.642,6 Jul 2014 12:41:13.202,8.560
6 Jul 2014 12:41:13.202,6 Jul 2014 13:16:25.946,2112.744
6 Jul 2014 13:16:25.946,6 Jul 2014 13:16:34.489,8.543
6 Jul 2014 14:18:14.206,6 Jul 2014 14:18:22.766,8.560
6 Jul 2014 14:18:22.766,6 Jul 2014 14:53:35.511,2112.745
6 Jul 2014 14:53:35.511,6 Jul 2014 14:53:44.053,8.543
6 Jul 2014 15:55:23.770,6 Jul 2014 15:55:32.330,8.560
6 Jul 2014 15:55:32.330,6 Jul 2014 16:30:45.076,2112.746
6 Jul 2014 16:30:45.076,6 Jul 2014 16:30:53.618,8.543
6 Jul 2014 17:32:33.333,6 Jul 2014 17:32:41.894,8.560
6 Jul 2014 17:32:41.894,6 Jul 2014 18:07:54.640,2112.747
6 Jul 2014 18:07:54.640,6 Jul 2014 18:08:03.183,8.542
6 Jul 2014 19:09:42.897,6 Jul 2014 19:09:51.457,8.560
6 Jul 2014 19:09:51.457,6 Jul 2014 19:45:04.205,2112.748
6 Jul 2014 19:45:04.205,6 Jul 2014 19:45:12.748,8.542
6 Jul 2014 20:46:52.461,6 Jul 2014 20:47:01.021,8.560
6 Jul 2014 20:47:01.021,6 Jul 2014 21:22:13.770,2112.749
6 Jul 2014 21:22:13.770,6 Jul 2014 21:22:22.312,8.542
6 Jul 2014 22:24:02.025,6 Jul 2014 22:24:10.585,8.560
6 Jul 2014 22:24:10.585,6 Jul 2014 22:59:23.335,2112.750
6 Jul 2014 22:59:23.335,6 Jul 2014 22:59:31.877,8.542
7 Jul 2014 00:01:11.589,7 Jul 2014 00:01:20.149,8.560
7 Jul 2014 00:01:20.149,7 Jul 2014 00:36:32.899,2112.751
7 Jul 2014 00:36:32.899,7 Jul 2014 00:36:41.442,8.542
7 Jul 2014 01:38:21.152,7 Jul 2014 01:38:29.713,8.560
7 Jul 2014 01:38:29.713,7 Jul 2014 02:13:42.464,2112.752
7 Jul 2014 02:13:42.464,7 Jul 2014 02:13:51.006,8.542
7 Jul 2014 03:15:30.716,7 Jul 2014 03:15:39.276,8.560
7 Jul 2014 03:15:39.276,7 Jul 2014 03:50:52.029,2112.753
7 Jul 2014 03:50:52.029,7 Jul 2014 03:51:00.571,8.542
7 Jul 2014 04:52:40.280,7 Jul 2014 04:52:48.840,8.560
7 Jul 2014 04:52:48.840,7 Jul 2014 05:28:01.594,2112.754
7 Jul 2014 05:28:01.594,7 Jul 2014 05:28:10.136,8.542
7 Jul 2014 06:29:49.843,7 Jul 2014 06:29:58.404,8.560
7 Jul 2014 06:29:58.404,7 Jul 2014 07:05:11.158,2112.755
7 Jul 2014 07:05:11.158,7 Jul 2014 07:05:19.700,8.542
7 Jul 2014 08:06:59.407,7 Jul 2014 08:07:07.967,8.560
7 Jul 2014 08:07:07.967,7 Jul 2014 08:42:20.723,2112.756
7 Jul 2014 08:42:20.723,7 Jul 2014 08:42:29.265,8.542
7 Jul 2014 09:44:08.971,7 Jul 2014 09:44:17.531,8.560
7 Jul 2014 09:44:17.531,7 Jul 2014 10:19:30.288,2112.757
7 Jul 2014 10:19:30.288,7 Jul 2014 10:19:38.830,8.542
7 Jul 2014 11:21:18.534,7 Jul 2014 11:21:27.095,8.560
7 Jul 2014 11:21:27.095,7 Jul 2014 11:56:39.852,2112.758
7 Jul 2014 11:56:39.852,7 Jul 2014 11:56:48.394,8.542
7 Jul 2014 12:58:28.098,7 Jul 2014 12:58:36.658,8.560
7 Jul 2014 12:58:36.658,7 Jul 2014 13:33:49.417,2112.759
7 Jul 2014 13:33:49.417,7 Jul 2014 13:33:57.959,8.542
7 Jul 2014 14:35:37.662,7 Jul 2014 14:35:46.222,8.560
7 Jul 2014 14:35:46.222,7 Jul 2014 15:10:58.982,2112.760
7 Jul 2014 15:10:58.982,7 Jul 2014 15:11:07.523,8.542
7 Jul 2014 16:12:47.225,7 Jul 2014 16:12:55.785,8.560
7 Jul 2014 16:12:55.785,7 Jul 2014 16:48:08.546,2112.761
7 Jul 2014 16:48:08.546,7 Jul 2014 16:48:17.088,8.542
7 Jul 2014 17:49:56.789,7 Jul 2014 17:50:05.349,8.560
7 Jul 2014 17:50:05.349,7 Jul 2014 18:25:18.111,2112.762
7 Jul 2014 18:25:18.111,7 Jul 2014 18:25:26.652,8.541
7 Jul 2014 19:27:06.352,7 Jul 2014 19:27:14.913,8.560
7 Jul 2014 19:27:14.913,7 Jul 2014 20:02:27.676,2112.763
7 Jul 2014 20:02:27.676,7 Jul 2014 20:02:36.217,8.541
7 Jul 2014 21:04:15.916,7 Jul 2014 21:04:24.476,8.560
7 Jul 2014 21:04:24.476,7 Jul 2014 21:39:37.240,2112.764
7 Jul 2014 21:39:37.240,7 Jul 2014 21:39:45.782,8.541
7 Jul 2014 22:41:25.479,7 Jul 2014 22:41:34.039,8.559
7 Jul 2014 22:41:34.039,7 Jul 2014 23:16:46.805,2112.766
7 Jul 2014 23:16:46.805,7 Jul 2014 23:16:55.346,8.541
8 Jul 2014 00:18:35.043,8 Jul 2014 00:18:43.605,8.562
8 Jul 2014 00:18:43.605,8 Jul 2014 00:53:56.369,2112.765
8 Jul 2014 00:53:56.369,8 Jul 2014 00:54:04.911,8.541
8 Jul 2014 01:55:44.606,8 Jul 2014 01:55:53.166,8.559
8 Jul 2014 01:55:53.166,8 Jul 2014 02:31:05.934,2112.768
8 Jul 2014 02:31:05.934,8 Jul 2014 02:31:14.475,8.541
8 Jul 2014 03:32:54.170,8 Jul 2014 03:33:02.732,8.562
8 Jul 2014 03:33:02.732,8 Jul 2014 04:08:15.498,2112.767
8 Jul 2014 04:08:15.498,8 Jul 2014 04:08:24.040,8.541
8 Jul 2014 05:10:03.733,8 Jul 2014 05:10:12.295,8.562
8 Jul 2014 05:10:12.295,8 Jul 2014 05:45:25.063,2112.768
8 Jul 2014 05:45:25.063,8 Jul 2014 05:45:33.604,8.541
8 Jul 2014 06:47:13.296,8 Jul 2014 06:47:21.858,8.562
8 Jul 2014 06:47:21.858,8 Jul 2014 07:22:34.628,2112.769
8 Jul 2014 07:22:34.628,8 Jul 2014 07:22:43.169,8.541
8 Jul 2014 08:24:22.862,8 Jul 2014 08:24:31.422,8.560
8 Jul 2014 08:24:31.422,8 Jul 2014 08:59:44.192,2112.770
8 Jul 2014 08:59:44.192,8 Jul 2014 08:59:52.733,8.541
8 Jul 2014 10:01:32.425,8 Jul 2014 10:01:40.985,8.560
8 Jul 2014 10:01:40.985,8 Jul 2014 10:36:53.757,2112.771
8 Jul 2014 10:36:53.757,8 Jul 2014 10:37:02.297,8.541
8 Jul 2014 11:38:41.989,8 Jul 2014 11:38:50.548,8.559
8 Jul 2014 11:38:50.548,8 Jul 2014 12:14:03.321,2112.774
8 Jul 2014 12:14:03.321,8 Jul 2014 12:14:11.862,8.541
8 Jul 2014 13:15:51.552,8 Jul 2014 13:16:00.111,8.559
8 Jul 2014 13:16:00.111,8 Jul 2014 13:51:12.886,2112.775
8 Jul 2014 13:51:12.886,8 Jul 2014 13:51:21.426,8.541
8 Jul 2014 14:53:01.113,8 Jul 2014 14:53:09.674,8.561
8 Jul 2014 14:53:09.674,8 Jul 2014 15:28:22.450,2112.776
8 Jul 2014 15:28:22.450,8 Jul 2014 15:28:30.991,8.541
8 Jul 2014 16:30:10.679,8 Jul 2014 16:30:19.238,8.559
8 Jul 2014 16:30:19.238,8 Jul 2014 17:05:32.015,2112.777
8 Jul 2014 17:05:32.015,8 Jul 2014 17:05:40.555,8.541
8 Jul 2014 18:07:20.242,8 Jul 2014 18:07:28.801,8.559
8 Jul 2014 18:07:28.801,8 Jul 2014 18:42:41.579,2112.778
8 Jul 2014 18:42:41.579,8 Jul 2014 18:42:50.120,8.540
8 Jul 2014 19:44:29.804,8 Jul 2014 19:44:38.364,8.560
8 Jul 2014 19:44:38.364,8 Jul 2014 20:19:51.144,2112.779
8 Jul 2014 20:19:51.144,8 Jul 2014 20:19:59.684,8.540
8 Jul 2014 21:21:39.368,8 Jul 2014 21:21:47.928,8.560
8 Jul 2014 21:21:47.928,8 Jul 2014 21:57:00.708,2112.780
8 Jul 2014 21:57:00.708,8 Jul 2014 21:57:09.248,8.540
8 Jul 2014 22:58:48.931,8 Jul 2014 22:58:57.491,8.560
8 Jul 2014 22:58:57.491,8 Jul 2014 23:34:10.273,2112.781
8 Jul 2014 23:34:10.273,8 Jul 2014 23:34:18.813,8.540
9 Jul 2014 00:35:58.494,9 Jul 2014 00:36:07.054,8.560
9 Jul 2014 00:36:07.054,9 Jul 2014 01:11:19.837,2112.783
9 Jul 2014 01:11:19.837,9 Jul 2014 01:11:28.377,8.540
9 Jul 2014 02:13:08.057,9 Jul 2014 02:13:16.618,8.560
9 Jul 2014 02:13:16.618,9 Jul 2014 02:48:29.401,2112.784
9 Jul 2014 02:48:29.401,9 Jul 2014 02:48:37.942,8.540
9 Jul 2014 03:50:17.621,9 Jul 2014 03:50:26.182,8.561
9 Jul 2014 03:50:26.182,9 Jul 2014 04:25:38.966,2112.784
9 Jul 2014 04:25:38.966,9 Jul 2014 04:25:47.506,8.540
9 Jul 2014 05:27:27.184,9 Jul 2014 05:27:35.745,8.561
9 Jul 2014 05:27:35.745,9 Jul 2014 06:02:48.530,2112.785
9 Jul 2014 06:02:48.530,9 Jul 2014 06:02:57.070,8.540
9 Jul 2014 07:04:36.747,9 Jul 2014 07:04:45.309,8.561
9 Jul 2014 07:04:45.309,9 Jul 2014 07:39:58.095,2112.786
9 Jul 2014 07:39:58.095,9 Jul 2014 07:40:06.635,8.540
9 Jul 2014 08:41:46.311,9 Jul 2014 08:41:54.870,8.559
9 Jul 2014 08:41:54.870,9 Jul 2014 09:17:07.659,2112.789
9 Jul 2014 09:17:07.659,9 Jul 2014 09:17:16.199,8.540
9 Jul 2014 10:18:55.875,9 Jul 2014 10:19:04.433,8.558
9 Jul 2014 10:19:04.433,9 Jul 2014 10:54:17.223,2112.790
9 Jul 2014 10:54:17.223,9 Jul 2014 10:54:25.763,8.540
9 Jul 2014 11:56:05.438,9 Jul 2014 11:56:13.996,8.558
9 Jul 2014 11:56:13.996,9 Jul 2014 12:31:26.788,2112.792
9 Jul 2014 12:31:26.788,9 Jul 2014 12:31:35.328,8.540
9 Jul 2014 13:33:14.999,9 Jul 2014 13:33:23.559,8.560
9 Jul 2014 13:33:23.559,9 Jul 2014 14:08:36.352,2112.793
9 Jul 2014 14:08:36.352,9 Jul 2014 14:08:44.892,8.540
9 Jul 2014 15:10:24.562,9 Jul 2014 15:10:33.123,8.560
9 Jul 2014 15:10:33.123,9 Jul 2014 15:45:45.917,2112.794
9 Jul 2014 15:45:45.917,9 Jul 2014 15:45:54.456,8.540
9 Jul 2014 16:47:34.128,9 Jul 2014 16:47:42.689,8.562
9 Jul 2014 16:47:42.689,9 Jul 2014 17:22:55.481,2112.791
9 Jul 2014 17:22:55.481,9 Jul 2014 17:23:04.020,8.540
9 Jul 2014 18:24:43.691,9 Jul 2014 18:24:52.253,8.562
9 Jul 2014 18:24:52.253,9 Jul 2014 19:00:05.045,2112.793
9 Jul 2014 19:00:05.045,9 Jul 2014 19:00:13.585,8.540
9 Jul 2014 20:01:53.254,9 Jul 2014 20:02:01.813,8.559
9 Jul 2014 20:02:01.813,9 Jul 2014 20:37:14.610,2112.797
9 Jul 2014 20:37:14.610,9 Jul 2014 20:37:23.149,8.539
9 Jul 2014 21:39:02.817,9 Jul 2014 21:39:11.379,8.562
9 Jul 2014 21:39:11.379,9 Jul 2014 22:14:24.174,2112.795
9 Jul 2014 22:14:24.174,9 Jul 2014 22:14:32.713,8.539
9 Jul 2014 23:16:12.382,9 Jul 2014 23:16:20.939,8.558
9 Jul 2014 23:16:20.939,9 Jul 2014 23:51:33.738,2112.799
9 Jul 2014 23:51:33.738,9 Jul 2014 23:51:42.278,8.539
10 Jul 2014 00:53:21.942,10 Jul 2014 00:53:30.502,8.560
10 Jul 2014 00:53:30.502,10 Jul 2014 01:28:43.303,2112.800
10 Jul 2014 01:28:43.303,10 Jul 2014 01:28:51.842,8.539
10 Jul 2014 02:30:31.508,10 Jul 2014 02:30:40.065,8.557
10 Jul 2014 02:30:40.065,10 Jul 2014 03:05:52.867,2112.801
10 Jul 2014 03:05:52.867,10 Jul 2014 03:06:01.406,8.539
10 Jul 2014 04:07:41.071,10 Jul 2014 04:07:49.629,8.557
10 Jul 2014 04:07:49.629,10 Jul 2014 04:43:02.431,2112.803
10 Jul 2014 04:43:02.431,10 Jul 2014 04:43:10.970,8.539
10 Jul 2014 05:44:50.634,10 Jul 2014 05:44:59.195,8.561
10 Jul 2014 05:44:59.195,10 Jul 2014 06:20:11.995,2112.800
10 Jul 2014 06:20:11.995,10 Jul 2014 06:20:20.534,8.539
10 Jul 2014 07:22:00.198,10 Jul 2014 07:22:08.755,8.557
10 Jul 2014 07:22:08.755,10 Jul 2014 07:57:21.560,2112.805
10 Jul 2014 07:57:21.560,10 Jul 2014 07:57:30.099,8.539
10 Jul 2014 08:59:09.758,10 Jul 2014 08:59:18.318,8.560
10 Jul 2014 08:59:18.318,10 Jul 2014 09:34:31.124,2112.806
10 Jul 2014 09:34:31.124,10 Jul 2014 09:34:39.663,8.539
10 Jul 2014 10:36:19.321,10 Jul 2014 10:36:27.881,8.560
10 Jul 2014 10:36:27.881,10 Jul 2014 11:11:40.688,2112.807
10 Jul 2014 11:11:40.688,10 Jul 2014 11:11:49.227,8.539
10 Jul 2014 12:13:28.884,10 Jul 2014 12:13:37.444,8.560
10 Jul 2014 12:13:37.444,10 Jul 2014 12:48:50.252,2112.809
10 Jul 2014 12:48:50.252,10 Jul 2014 12:48:58.791,8.539
10 Jul 2014 13:50:38.447,10 Jul 2014 13:50:47.007,8.560
10 Jul 2014 13:50:47.007,10 Jul 2014 14:25:59.817,2112.810
10 Jul 2014 14:25:59.817,10 Jul 2014 14:26:08.355,8.539
10 Jul 2014 15:27:48.010,10 Jul 2014 15:27:56.570,8.560
10 Jul 2014 15:27:56.570,10 Jul 2014 16:03:09.381,2112.811
10 Jul 2014 16:03:09.381,10 Jul 2014 16:03:17.920,8.539
10 Jul 2014 17:04:57.573,10 Jul 2014 17:05:06.133,8.560
10 Jul 2014 17:05:06.133,10 Jul 2014 17:40:18.945,2112.812
10 Jul 2014 17:40:18.945,10 Jul 2014 17:40:27.484,8.539
10 Jul 2014 18:42:07.136,10 Jul 2014 18:42:15.696,8.560
10 Jul 2014 18:42:15.696,10 Jul 2014 19:17:28.509,2112.814
10 Jul 2014 19:17:28.509,10 Jul 2014 19:17:37.048,8.539
10 Jul 2014 20:19:16.699,10 Jul 2014 20:19:25.259,8.560
10 Jul 2014 20:19:25.259,10 Jul 2014 20:54:38.074,2112.815
10 Jul 2014 20:54:38.074,10 Jul 2014 20:54:46.612,8.538
10 Jul 2014 21:56:26.262,10 Jul 2014 21:56:34.822,8.560
10 Jul 2014 21:56:34.822,10 Jul 2014 22:31:47.638,2112.816
10 Jul 2014 22:31:47.638,10 Jul 2014 22:31:56.176,8.538
10 Jul 2014 23:33:35.827,10 Jul 2014 23:33:44.385,8.558
10 Jul 2014 23:33:44.385,11 Jul 2014 00:08:57.202,2112.817
11 Jul 2014 00:08:57.202,11 Jul 2014 00:09:05.740,8.538
11 Jul 2014 01:10:45.388,11 Jul 2014 01:10:53.948,8.560
11 Jul 2014 01:10:53.948,11 Jul 2014 01:46:06.766,2112.819
11 Jul 2014 01:46:06.766,11 Jul 2014 01:46:15.305,8.538
11 Jul 2014 02:47:54.950,11 Jul 2014 02:48:03.511,8.560
11 Jul 2014 02:48:03.511,11 Jul 2014 03:23:16.330,2112.820
11 Jul 2014 03:23:16.330,11 Jul 2014 03:23:24.869,8.538
11 Jul 2014 04:25:04.513,11 Jul 2014 04:25:13.073,8.560
11 Jul 2014 04:25:13.073,11 Jul 2014 05:00:25.895,2112.821
11 Jul 2014 05:00:25.895,11 Jul 2014 05:00:34.433,8.538
11 Jul 2014 06:02:14.076,11 Jul 2014 06:02:22.636,8.560
11 Jul 2014 06:02:22.636,11 Jul 2014 06:37:35.459,2112.822
11 Jul 2014 06:37:35.459,11 Jul 2014 06:37:43.997,8.538
11 Jul 2014 07:39:23.639,11 Jul 2014 07:39:32.199,8.560
11 Jul 2014 07:39:32.199,11 Jul 2014 08:14:45.023,2112.824
11 Jul 2014 08:14:45.023,11 Jul 2014 08:14:53.561,8.538
11 Jul 2014 09:16:33.202,11 Jul 2014 09:16:41.762,8.560
11 Jul 2014 09:16:41.762,11 Jul 2014 09:51:54.587,2112.825
11 Jul 2014 09:51:54.587,11 Jul 2014 09:52:03.125,8.538
11 Jul 2014 10:53:42.765,11 Jul 2014 10:53:51.325,8.560
11 Jul 2014 10:53:51.325,11 Jul 2014 11:29:04.151,2112.826
11 Jul 2014 11:29:04.151,11 Jul 2014 11:29:12.689,8.538
11 Jul 2014 12:30:52.328,11 Jul 2014 12:31:00.888,8.560
11 Jul 2014 12:31:00.888,11 Jul 2014 13:06:13.715,2112.828
11 Jul 2014 13:06:13.715,11 Jul 2014 13:06:22.253,8.538
11 Jul 2014 14:08:01.891,11 Jul 2014 14:08:10.451,8.560
11 Jul 2014 14:08:10.451,11 Jul 2014 14:43:23.280,2112.829
11 Jul 2014 14:43:23.280,11 Jul 2014 14:43:31.817,8.538
11 Jul 2014 15:45:11.453,11 Jul 2014 15:45:20.014,8.560
11 Jul 2014 15:45:20.014,11 Jul 2014 16:20:32.844,2112.830
11 Jul 2014 16:20:32.844,11 Jul 2014 16:20:41.381,8.538
11 Jul 2014 17:22:21.016,11 Jul 2014 17:22:29.576,8.560
11 Jul 2014 17:22:29.576,11 Jul 2014 17:57:42.408,2112.832
11 Jul 2014 17:57:42.408,11 Jul 2014 17:57:50.946,8.538
11 Jul 2014 18:59:30.579,11 Jul 2014 18:59:39.139,8.560
11 Jul 2014 18:59:39.139,11 Jul 2014 19:34:51.972,2112.833
11 Jul 2014 19:34:51.972,11 Jul 2014 19:35:00.510,8.538
11 Jul 2014 20:36:40.142,11 Jul 2014 20:36:48.702,8.560
11 Jul 2014 20:36:48.702,11 Jul 2014 21:12:01.536,2112.834
11 Jul 2014 21:12:01.536,11 Jul 2014 21:12:10.074,8.538
11 Jul 2014 22:13:49.705,11 Jul 2014 22:13:58.265,8.560
11 Jul 2014 22:13:58.265,11 Jul 2014 22:49:11.100,2112.835
11 Jul 2014 22:49:11.100,11 Jul 2014 22:49:19.638,8.537
11 Jul 2014 23:50:59.268,11 Jul 2014 23:51:07.828,8.560
11 Jul 2014 23:51:07.828,12 Jul 2014 00:00:00.000,532.172

